{"generated":"2026-07-14T09:13:23.592Z","source":"https://elvedes.nl/en/find-distributor","countries":[{"code":"AR","name":"Argentina","items":[{"name":"Busso Juan Macelo (BPI Argentina)","address":["Pueyrredón 532","San Miguel de Tucumán"],"phone":null,"phoneHref":null,"email":null,"website":null,"lat":-26.83178,"lon":-65.23738}]},{"code":"AT","name":"Austria","items":[{"name":"Hermann Hartje Verkaufsbüro Linz","address":["Pizza Mann-Straße 1","4050 Traun"],"phone":"+43 (0) 7229 642 19 0","phoneHref":"tel:+437229642190","email":"linz@hartje.de","website":"https://hartje.de","lat":48.22952,"lon":14.21742}]},{"code":"BE","name":"Belgium","items":[{"name":"Dewo Europe N.V.","address":["Doorn Noordstraat 8","9400 Ninove"],"phone":"+32 54 56 79 81","phoneHref":"tel:+3254567981","email":"info@dewo-europe.com","website":"https://dewo-europe.com","lat":50.85074,"lon":4.02779},{"name":"Distri-Bike NV","address":["Chemin de la Guelenne 70","7060 Soignies"],"phone":"+32 (0) 67 84 23 86","phoneHref":"tel:+3267842386","email":"info@distri.bike","website":"https://distri.bike","lat":50.59036,"lon":4.07451},{"name":"Flanders NV","address":["Wijterveldstraat 60","9550 Herzele (Borsbeke)"],"phone":"+32 (0) 53 63 16 00","phoneHref":"tel:+3253631600","email":"info@flandersfietsen.be","website":"https://flandersfietsen.be","lat":50.90472,"lon":3.89458},{"name":"VDB Parts NV","address":["Industriepark-Noord 24","9100 Sint-Niklaas"],"phone":"+32 (0) 3 780 71 20","phoneHref":"tel:+3237807120","email":"info@vdbparts.be","website":"https://vdbparts.be","lat":51.14812,"lon":4.16887}]},{"code":"BG","name":"Bulgaria","items":[{"name":"Velo-M магазин за велосипеди и сервиз","address":["ул. „Москва“ 48","4151 кв. Генерал Николаево, Раковски"],"phone":"+359 882 591 248","phoneHref":"tel:+359882591248","email":"info@velo-m.bg","website":"https://velo-m.bg","lat":42.28788,"lon":24.96143}]},{"code":"CH","name":"Switzerland","items":[{"name":"Vitelli Velobedarf AG","address":["Dornacherstraße 101","4053 Basel"],"phone":"+41 61 361 70 70","phoneHref":"tel:+41613617070","email":"info@vitelli.ch","website":"https://www.vitelli.ch","lat":47.54406,"lon":7.58919}]},{"code":"CR","name":"Costa Rica","items":[{"name":"Mundo Bike SRL","address":["Contiguo a INNOmuebles, Diagonal Mas x Menos San Pedro, 67C","San José , Montes de Oca, San Pedro","11501"],"phone":"+506 8913 4283","phoneHref":"tel:+50689134283","email":"mundobike2015@gmail.com","website":"https://instagram.com/eurobikecr","lat":9.93543,"lon":-84.05042}]},{"code":"DE","name":"Germany","items":[{"name":"RA-CO GmbH","address":["Fichtenweg 37","99098 Erfurt"],"phone":"+49 36203 614 44","phoneHref":"tel:+493620361444","email":"service@ra-co.de","website":"https://ra-co.de","lat":50.99793,"lon":11.0896},{"name":"Hermann Hartje KG","address":["Deichstraße 120-122","27318 Hoya"],"phone":"+49 4251 811 336","phoneHref":"tel:+494251811336","email":"info@hartje.de","website":"https://hartje.de","lat":52.81474,"lon":9.14404},{"name":"ZEG eG","address":["Longericher Straße 2","50739 Köln"],"phone":"+49 221 179 590","phoneHref":"tel:+49221179590","email":"info@zeg.de","website":"https://zeg.de","lat":50.97104,"lon":6.93821}]},{"code":"DK","name":"Denmark","items":[{"name":"C. Reinhardt A/S","address":["Industriparken 21","2750 Ballerup"],"phone":"+45 44 83 09 10","phoneHref":"tel:+4544830910","email":"info@creinhardt.dk","website":"https://c-reinhardt.com","lat":55.72891,"lon":12.37714},{"name":"Hartje Ebsen A/S","address":["Industriparken 8","6500 Vojens"],"phone":"+45 74 54 18 19","phoneHref":"tel:+4574541819","email":"kundeservice@hartje.de","website":"https://hartjeebsen.dk","lat":55.2403,"lon":9.27085}]},{"code":"EE","name":"Estonia","items":[{"name":"Velobalt","address":["Asub Lätis"],"phone":null,"phoneHref":null,"email":"info@velobalt.lv","website":"https://www.velobalt.lv","lat":null,"lon":null}]},{"code":"ES","name":"Spain","items":[{"name":"Cobalai Bikes","address":["Avenida Sant Julià, 154 nau 6","08403 Granollers, Barcelona"],"phone":"+34 938 79 37 11","phoneHref":"tel:+34938793711","email":"info@cobalaibikes.com","website":"https://cobalai.com","lat":41.60831,"lon":2.2779},{"name":"Bicicletes Amat SA","address":["Carretera Caldes, 12","08754 El Papiol, Barcelona"],"phone":"+34 936 73 05 03","phoneHref":"tel:+34936730503","email":"amat@amat-bici.com","website":"https://amat-bici.com","lat":41.42198,"lon":2.0081},{"name":"Calmera Ciclismo Atocha","address":["Calle de Atocha, 98","28012 Madrid"],"phone":"+34 915 27 75 74 / +34 620 75 19 60 (WhatsApp)","phoneHref":"tel:+34915277574/+34620751960(WhatsApp)","email":"info@calmera.es","website":"https://ciclismo.calmera.es","lat":40.41053,"lon":-3.6958},{"name":"Ciclos Mallorca SL","address":["Carrer de Pere Joan Llobet, 22","07006 Palma de Mallorca, Illes Balears"],"phone":"+34 971 77 17 13","phoneHref":"tel:+34971771713","email":"info@ciclosmallorca.es","website":"https://ciclosmallorca.es","lat":39.56839,"lon":2.66317},{"name":"Gurpilan S.L.","address":["Polígono Industrial Itziar, Parcela, 3, E-2","20829 Itziar, Guipúzcoa"],"phone":"+34 (0) 943 199 103","phoneHref":"tel:+34943199103","email":"contacto@gurpil.com","website":"https://gurpil.com","lat":43.27639,"lon":-2.3314},{"name":"Nosolorodamientos","address":["Calle Dolores Ibárruri, 8","06260 Monesterio, Badajoz"],"phone":"+34 (0)621 275 490","phoneHref":"tel:+34621275490","email":"info@nosolorodamientos.com","website":"https://nosolorodamientos.com","lat":38.09255,"lon":-6.2696},{"name":"Version Bike SL","address":["Carrer Alcoy, 6","03203 Elche, Alicante"],"phone":"+34 865 55 08 87 / +34 654 82 19 78","phoneHref":"tel:+34865550887/+34654821978","email":"agomis@versionbike.com","website":"https://versionbike.com","lat":38.27087,"lon":-0.67188},{"name":"Wolf-Factory Bike S.L.","address":["Es Camí del Salto, 36","46815 La Llosa de Ranes, Valencia"],"phone":"+34 (0)962 229 438","phoneHref":"tel:+34962229438","email":"info@wolfbike.es","website":"https://wolfbike.es","lat":39.01755,"lon":-0.53287}]},{"code":"FR","name":"France","items":[{"name":"BS Trading","address":["9 Rue Blaise Pacal","68000 Colmar"],"phone":"+33 (0) 3 89 73 60 32","phoneHref":"tel:+33389736032","email":"info@bstrading.net","website":"https://bstrading.net","lat":48.10995,"lon":7.38489},{"name":"P2R - PROCONCEPT 2 ROUES","address":["27 Rue Jan Pallach","44220 Couëron"],"phone":"+33 2 51 81 81 00","phoneHref":"tel:+33251818100","email":"info@p2r-net.com","website":"https://www.p2r-expert.com","lat":47.23069,"lon":-1.73022},{"name":"SEMC DISTRIBUTION","address":["7 Rue des Verriers","68200 Mulhouse"],"phone":"+33 3 89 60 61 35","phoneHref":"tel:+33389606135","email":"bike@semc.pro","website":"https://semc.pro","lat":47.7505,"lon":7.30362}]},{"code":"GB","name":"United Kingdom","items":[{"name":"The Cycle Division Ltd","address":["17/18 Park Valley Mills, Meltham Road","Huddersfield, West Yorkshire","HD4 7BH"],"phone":"+44 1484 665 055 / +44 8450 508 500 (Service)","phoneHref":"tel:+441484665055/+448450508500(Service)","email":"sales@thecycledivision.com","website":"https://thecycledivision.com","lat":53.64666,"lon":-1.78225}]},{"code":"GR","name":"Greece","items":[{"name":"O ΠΟΔΗΛΑΤΗΣ","address":["Ελ. Βενιζέλου 149","Μενεμένη, Θεσσαλονίκη, 56121"],"phone":"+30 231 070 6130","phoneHref":"tel:+302310706130","email":"info@podilatis.gr","website":"https://podilatis.gr","lat":40.65138,"lon":22.89055},{"name":"Ride Parts","address":["Κυψέλης 19","Αθήνα 112 57"],"phone":"+30 697 219 5142","phoneHref":"tel:+306972195142","email":"sales@rideparts.gr","website":"https://rideparts.gr","lat":37.99672,"lon":23.73559}]},{"code":"HU","name":"Hungary","items":[{"name":"Velossimo Kft","address":["Vác, SENIOR Kereskedelmi és Szolgáltató Park","Galcsek György utca 8-10, 2600"],"phone":"+36 30 221 2929","phoneHref":"tel:+36302212929","email":"velossimo.hu@gmail.com","website":"https://velossimo.hu","lat":47.78055,"lon":19.13366}]},{"code":"IT","name":"Italy","items":[{"name":"Montalbetti S.r.l.","address":["Via Roma, 57","21020 Daverio, Varese"],"phone":"+39 (0) 332 285147","phoneHref":"tel:+39332285147","email":"info@montalbettisrl.com","website":"https://www.montalbettisrl.com","lat":45.77678,"lon":8.77062},{"name":"RMS S.p.A.","address":["Via Macallè, 156","20831 Seregno MB"],"phone":"+39 (0)362 27301","phoneHref":"tel:+3936227301","email":"info@rms.it","website":"https://www.rms.it","lat":45.63709,"lon":9.21835},{"name":"BISTARK","address":["Via Vittorio Lombardi, 23","36075 Montecchio Maggiore, Vicenza"],"phone":"+39 0444 492843","phoneHref":"tel:+390444492843","email":"info@bistark.com","website":"https://bistark.com","lat":45.51214,"lon":11.43154}]},{"code":"LV","name":"Latvia","items":[{"name":"Velobalt","address":["Cīruļu iela 3","2118 Saurieši, Stopiņu novads"],"phone":"+371 291 33867","phoneHref":"tel:+37129133867","email":"info@velobalt.lv","website":"https://velobalt.lv","lat":56.91317,"lon":24.35398}]},{"code":"NL","name":"Netherlands","items":[{"name":"AGU","address":["Koraalstraat 1","1812 RK Alkmaar"],"phone":"+31 (0)85 484 4728","phoneHref":"tel:+31854844728","email":"info@agu.nl","website":"https://agu.nl","lat":52.61184,"lon":4.74824},{"name":"Ad Smulders","address":["Mariastraat 30","5038 SK Tilburg"],"phone":"+31 (0)13 543 2211","phoneHref":"tel:+31135432211","email":"info@adsmuldersbv.nl","website":"https://adsmuldersbv.nl","lat":51.55681,"lon":5.08233},{"name":"Avada Tweewielergroothandel","address":["H. Kamerlingh Onnesweg 11","2408 AX Alphen aan den Rijn"],"phone":"+31 (0) 172 476 264","phoneHref":"tel:+31172476264","email":"info@avada.nl","website":"https://avada.nl","lat":52.12964,"lon":4.64604},{"name":"Bike Butler BV","address":["H.J.E. Wenckebachweg 161","1096 AM Amsterdam"],"phone":"+31 (0)20 779 3567","phoneHref":"tel:+31207793567","email":"info@bike-butler.nl","website":"https://bike-butler.nl","lat":52.33651,"lon":4.93411},{"name":"Bikeright","address":["Beerze 10","5422 VW Gemert"],"phone":"+31 (0)492 364 939","phoneHref":"tel:+31492364939","email":"info@bikeright.nl","website":"https://bikeright.nl","lat":51.5634,"lon":5.70737},{"name":"Bles Parts","address":["De Ynfaert 6","8447 GM Heerenveen"],"phone":"+31 (0)6 5151 1227","phoneHref":"tel:+31651511227","email":"info@blesparts.nl","website":"https://blesparts.nl","lat":52.97382,"lon":5.88985},{"name":"Bouwman Import","address":["Oude IJsselweg 14","7075 DL Etten"],"phone":"+31 (0)315 323 894","phoneHref":"tel:+31315323894","email":"info@bouwman-import.nl","website":"https://bouwman-import.nl","lat":51.91185,"lon":6.34016},{"name":"Cycletech","address":["Opaalstraat 8","1812 RH Alkmaar"],"phone":"+31 (0)72 503 8122","phoneHref":"tel:+31725038122","email":"info@cycletech.nl","website":"https://cycletech.nl","lat":52.60466,"lon":4.75211},{"name":"De Ridder","address":["Middelblok 138","2831 BP Gouderak"],"phone":"+31 (0)6 10 257 237","phoneHref":"tel:+31610257237","email":"info@defietsengroothandel.nl","website":"https://defietsengroothandel.nl","lat":51.99448,"lon":4.68854},{"name":"Doleweerd","address":["Saksenweg 30","5349 BX Oss"],"phone":"+31 (0)412 633 223","phoneHref":"tel:+31412633223","email":"info@doleweerd.nl","website":"https://doleweerd.nl","lat":51.76183,"lon":5.56316},{"name":"Falko BV","address":["Kelvinstraat 16","6902 PW Zevenaar"],"phone":"+31 (0) 316 225 316","phoneHref":"tel:+31316225316","email":"info@falko.nl","website":"https://falko.nl","lat":51.93247,"lon":6.09525},{"name":"Gransier BikeParts","address":["Trompenburgstraat 5","6412 ZH Heerlen"],"phone":"+31 (0)45 572 5290","phoneHref":"tel:+31455725290","email":"info@gransier.nl","website":"https://gransier.nl","lat":50.90121,"lon":5.94564},{"name":"Groothandel Aalten","address":["Koppelstraat 41","7391 AK Twello"],"phone":"+31 (0) 571 287 287","phoneHref":"tel:+31571287287","email":"info@aaltenbv.nl","website":"https://aaltenbv.nl","lat":52.22709,"lon":6.08559},{"name":"Juncker Bike Parts","address":["Wilmersdorf 37","7327 AD Apeldoorn"],"phone":"+31 (0)513 788 118","phoneHref":"tel:+31513788118","email":"info@juncker.nl","website":"https://juncker.nl","lat":52.18473,"lon":5.99256},{"name":"Kik Cycleparts","address":["Livingstoneweg 16","4462 GL Goes"],"phone":"+31 (0)113 215 619","phoneHref":"tel:+31113215619","email":"info@kikgoes.nl","website":"https://kikgoes.nl","lat":51.49033,"lon":3.88145},{"name":"Louis Verwimp","address":["De Vest 21","5555 XL Valkenswaard"],"phone":"+31 (0)40 204 1515","phoneHref":"tel:+31402041515","email":"info@verwimp.nl","website":"https://verwimp.nl","lat":51.3466,"lon":5.48818},{"name":"Meybo Distribution","address":["Rijkevoortseweg 5","5831 TG Boxmeer"],"phone":"+31 (0)492 329 013","phoneHref":"tel:+31492329013","email":"info@meybodistribution.com","website":"https://meybodistribution.nu","lat":51.65398,"lon":5.93047},{"name":"Motorimport A.J. Huige","address":["Gildenweg 25","3334 KC Zwijndrecht"],"phone":"+31 (0)78 647 5613","phoneHref":"tel:+31786475613","email":"info@mopedsport.nl","website":"https://mopedsport.nl","lat":51.81085,"lon":4.59846},{"name":"Netfiets","address":["HM Brouwerstraat 4b","9672 AG Winschoten"],"phone":"+31 (0)597 414 408","phoneHref":"tel:+31597414408","email":"info@netfiets.nl","website":"https://netfiets.nl","lat":53.13627,"lon":7.04968},{"name":"PENDLR (Kruitbosch Zwolle B.V.)","address":["Ravensburgstraat 8","8028 PZ Zwolle"],"phone":"+31 (0)38 466 1991","phoneHref":"tel:+31384661991","email":"info@pendlr.nl","website":"https://pendlrmobility.com","lat":52.54219,"lon":6.17282},{"name":"PePe Parts","address":["Reedijk 7","3274 KE Heinenoord"],"phone":"+31 (0)186 630 560","phoneHref":"tel:+31186630560","email":"info@pepeparts.nl","website":"https://pepeweb.nl","lat":51.81475,"lon":4.49851},{"name":"Roveba","address":["Pieter Zeemanweg 77","3316 GZ Dordrecht"],"phone":"+31 (0)78 618 7598","phoneHref":"tel:+31786187598","email":"info@roveba.nl","website":"https://www.roveba.nl","lat":51.77556,"lon":4.63922},{"name":"Wagelaar Rijwielgroothandel","address":["Vlierstraat 780","7544 GV Enschede"],"phone":"+31 (0)53 431 566","phoneHref":"tel:+3153431566","email":"info@wagelaar-enschede.nl","website":"https://wagelaar-enschede.nl","lat":52.19655,"lon":6.88952}]},{"code":"PA","name":"Panama","items":[{"name":"Desarrollo Deportivo Los 40, S.A.","address":["Calle 129 Este, Urb. San Fernando","2824, Juan Díaz, Ciudad de Panamá"],"phone":"+507 60 50 45 13","phoneHref":"tel:+50760504513","email":"luisberrocal74@gmail.com","website":null,"lat":8.98183,"lon":-79.56782}]},{"code":"PL","name":"Poland","items":[{"name":"DEEMDE Sp. z o.o.","address":["Dworcowa 28","46-053 Chrząstowice"],"phone":"+48 (0)792 098 098","phoneHref":"tel:+48792098098","email":"biuro@deemde.pl","website":"https://b2b.deemde.pl","lat":50.66076,"lon":18.07278}]},{"code":"RO","name":"Romania","items":[{"name":"Active Industrial Solutions SRL","address":["Bulevardul 1 Mai 350F","Berceni 077020"],"phone":"+40 (0)742 068 080","phoneHref":"tel:+40742068080","email":"office@activein.ro","website":"https://activein.ro","lat":44.31658,"lon":26.18409}]},{"code":"SI","name":"Slovenia","items":[{"name":"Velo d.o.o.","address":["Dunajska cesta 421","1231 Ljubljana - Črnuče"],"phone":"+386 (0)1 51 95 030","phoneHref":"tel:+38615195030","email":"info@velo.si","website":"https://velo.si","lat":46.10552,"lon":14.5366}]},{"code":"UA","name":"Ukraine","items":[{"name":"Veliki UA","address":["пр. Перемоги, 89А","Київ, 02000"],"phone":"+380 (0)800 330 531","phoneHref":"tel:+380800330531","email":null,"website":"https://veliki.ua","lat":50.44026,"lon":30.54127}]},{"code":"ZA","name":"South Africa","items":[{"name":"Bicycle Power Trading","address":["5, 7th Street","Chartwell, Gauteng","2055"],"phone":"+27 78 708 6908","phoneHref":"tel:+27787086908","email":"info@bicyclepower.co.za","website":"https://bicyclepower.co.za","lat":-25.98121,"lon":27.96228}]}]}
